,latitude,longitude,sessions,zip,Formatted Address
0,21.3069,-157.8583,1,96813,"Honolulu, HI 96813, USA"
1,25.6104,-80.4295,1,33177,"Miami, FL 33177, USA"
2,25.6660,-80.3578,1,33176,"Miami, FL 33176, USA"
3,25.7492,-80.2635,1,33134,"Miami, FL 33134, USA"
4,25.7617,-80.1918,6,33131,"Miami, FL 33131, USA"
5,25.8651,-80.3245,2,33016,"Hialeah, FL 33016, USA"
6,25.9565,-80.1392,1,33180,"Aventura, FL 33180, USA"
7,25.9861,-80.3036,1,33025,"Miramar, FL 33025, USA"
8,26.0112,-80.1495,10,33020,"Hollywood, FL 33020, USA"
9,26.0765,-80.2521,2,33328,"Fort Lauderdale, FL 33328, USA"
10,26.1224,-80.1373,3,33301,"Fort Lauderdale, FL 33301, USA"
11,26.1276,-80.2331,6,33317,"Fort Lauderdale, FL 33317, USA"
12,26.1420,-81.7948,1,34102,"Naples, FL 34102, USA"
13,26.2379,-80.1248,1,33060,"Pompano Beach, FL 33060, USA"
14,26.2517,-80.1789,3,33066,"Pompano Beach, FL 33066, USA"
15,26.2670,-81.7896,3,34108,"Naples, FL 34108, USA"
16,26.2712,-80.2706,1,33065,"Pompano Beach, FL 33065, USA"
17,26.3683,-80.1289,2,33431,"Boca Raton, FL 33431, USA"
18,26.4454,-80.1398,1,33484,"Delray Beach, FL 33484, USA"
19,26.4615,-80.0728,3,33444,"Delray Beach, FL 33444, USA"
20,26.5025,-80.1066,1,33436,"Boynton Beach, FL 33436, USA"
21,26.5318,-80.0905,1,33426,"Boynton Beach, FL 33426, USA"
22,26.5504,-81.8687,2,33907,"Fort Myers, FL 33907, USA"
23,26.6168,-80.0685,1,33460,"Lake Worth, FL 33460, USA"
24,26.6406,-81.8723,8,33901,"Fort Myers, FL 33901, USA"
25,26.6618,-80.2684,2,33414,"VLG WELLINGTN, FL 33414, USA"
26,26.8234,-80.1387,1,33418,"Riviera Beach, FL 33418, USA"
27,26.9342,-80.0942,2,33458,"Jupiter, FL 33458, USA"
28,27.7692,-82.7690,2,33706,"St. Petersburg, FL 33706, USA"
29,27.7731,-82.6400,2,33701,"St. Petersburg, FL 33701, USA"
30,27.8397,-82.7912,1,33772,"Seminole, FL 33772, USA"
31,27.8661,-82.3265,1,33569,"Riverview, FL 33569, USA"
32,27.9014,-82.6729,2,33762,"Clearwater, FL 33762, USA"
33,27.9095,-82.7873,1,33771,"Largo, FL 33771, USA"
34,27.9378,-82.2859,1,33510,"Brandon, FL 33510, USA"
35,27.9506,-82.4572,9,33602,"Tampa, FL 33602, USA"
36,27.9659,-82.8001,1,33755,"Clearwater, FL 33755, USA"
37,28.0836,-80.6081,2,32901,"Melbourne, FL 32901, USA"
38,28.1461,-82.7568,1,34689,"Tarpon Springs, FL 34689, USA"
39,28.1614,-81.6017,2,33837,"Davenport, FL 33837, USA"
40,28.2920,-81.4076,2,34741,"Kissimmee, FL 34741, USA"
41,28.3304,-81.3571,1,34743,"BVL, FL 34743, USA"
42,28.3606,-81.4223,18,32837,"Orlando, FL 32837, USA"
43,28.4669,-81.5414,1,34786,"Windermere, FL 34786, USA"
44,28.4711,-81.4245,1,32809,"Belle Isle, FL 32809, USA"
45,28.5383,-81.3792,34,32801,"Orlando, FL 32801, USA"
46,28.5411,-81.3006,1,32807,"Azalea Park, FL 32807, USA"
47,28.5547,-81.1065,1,32820,"Alafaya, FL 32820, USA"
48,28.5653,-81.5862,1,34787,"Winter Garden, FL 34787, USA"
49,28.5703,-81.2354,3,32817,"Union Park, FL 32817, USA"
50,28.8713,-81.3289,1,32713,"DeBary, FL 32713, USA"
51,29.0339,-95.4344,2,77566,"Richwood, TX 77566, USA"
52,29.1383,-80.9956,1,32127,"PT ORANGE, FL 32127, USA"
53,29.3013,-94.7977,2,77550,"Galveston, TX 77550, USA"
54,29.4241,-98.4936,20,78205,"San Antonio, TX 78205, USA"
55,29.5636,-95.2860,2,77581,"BROOKSIDE VL, TX 77581, USA"
56,29.6197,-95.6349,1,77478,"Sugar Land, TX 77478, USA"
57,29.6516,-82.3248,1,32601,"Gainesville, FL 32601, USA"
58,29.7604,-95.3698,13,77002,"Houston, TX 77002, USA"
59,29.9012,-81.3124,1,32084,"ST AUG BEACH, FL 32084, USA"
60,29.9511,-90.0715,1,70112,"New Orleans, LA 70112, USA"
61,29.9717,-95.6938,3,77429,"Cypress, TX 77429, USA"
62,29.9941,-90.2417,1,70062,"Kenner, LA 70062, USA"
63,30.0035,-91.8187,1,70560,"New Iberia, LA 70560, USA"
64,30.0799,-95.4172,1,77373,"Spring, TX 77373, USA"
65,30.0972,-95.6161,2,77375,"Tomball, TX 77375, USA"
66,30.1661,-81.7065,1,32073,"Orange Park, FL 32073, USA"
67,30.2672,-97.7431,6,78701,"Austin, TX 78701, USA"
68,30.3119,-95.4561,1,77301,"Conroe, TX 77301, USA"
69,30.3322,-81.6556,2,32202,"Jacksonville, FL 32202, USA"
70,30.3960,-88.8853,2,39530,"Biloxi, MS 39530, USA"
71,30.4213,-87.2169,1,32501,"Pensacola, FL 32501, USA"
72,30.4383,-84.2807,2,32301,"Tallahassee, FL 32301, USA"
73,30.6333,-97.6780,1,78626,"Georgetown, TX 78626, USA"
74,30.6954,-88.0399,3,36602,"Mobile, AL 36602, USA"
75,31.0835,-97.6597,1,76548,"Harker Heights, TX 76548, USA"
76,31.4590,-85.6403,2,36360,"Ozark, AL 36360, USA"
77,31.7619,-106.4850,2,79901,"El Paso, TX 79901, USA"
78,32.0809,-81.0912,1,31401,"Savannah, GA 31401, USA"
79,32.2988,-90.1848,2,39201,"Jackson, MS 39201, USA"
80,32.3513,-95.3011,1,75702,"Tyler, TX 75702, USA"
81,32.5252,-93.7502,1,71107,"Shreveport, LA 71107, USA"
82,32.5897,-96.8571,1,75115,"DeSoto, TX 75115, USA"
83,32.6130,-83.6242,4,31088,"Warner Robins, GA 31088, USA"
84,32.7157,-117.1611,4,92101,"San Diego, CA 92101, USA"
85,32.7460,-96.9978,1,75050,"Grand Prairie, TX 75050, USA"
86,32.7482,-96.4719,1,75126,"Heath, TX 75126, USA"
87,32.7555,-97.3308,8,76102,"Fort Worth, TX 76102, USA"
88,32.7765,-79.9311,1,29401,"Charleston, SC 29401, USA"
89,32.7767,-96.7970,26,75201,"Dallas, TX 75201, USA"
90,32.8140,-96.9489,1,75060,"Irving, TX 75060, USA"
91,32.8550,-96.7976,1,75225,"Dallas, TX 75225, USA"
92,32.8579,-97.2547,1,76148,"Watauga, TX 76148, USA"
93,32.8882,-84.3266,2,30286,"Thomaston, GA 30286, USA"
94,32.9126,-96.6389,3,75040,"Garland, TX 75040, USA"
95,32.9265,-96.8961,1,75234,"Dallas, TX 75234, USA"
96,32.9343,-97.0781,1,76051,"Grapevine, TX 76051, USA"
97,32.9483,-96.7299,2,75081,"Richardson, TX 75081, USA"
98,32.9756,-96.8900,2,75006,"Carrollton, TX 75006, USA"
99,33.0546,-84.1558,3,30204,"Barnesville, GA 30204, USA"
100,33.0957,-80.3154,1,29472,"Ridgeville, SC 29472, USA"
101,33.1023,-84.3427,1,30295,"Zebulon, GA 30295, USA"
102,33.1507,-96.8236,5,75034,"Frisco, TX 75034, USA"
103,33.1959,-117.3795,2,92054,"Oceanside, CA 92054, USA"
104,33.2362,-96.8011,1,75078,"Prosper, TX 75078, USA"
105,33.2468,-84.2641,1,30223,"Griffin, GA 30223, USA"
106,33.4054,-86.8114,12,35226,"Birmingham, AL 35226, USA"
107,33.4152,-111.8315,4,85201,"Mesa, AZ 85201, USA"
108,33.4255,-111.9400,24,85281,"Tempe, AZ 85281, USA"
109,33.4332,-79.1214,1,29585,"LITCHFIELD, SC 29585, USA"
110,33.4484,-112.0740,46,85004,"Phoenix, AZ 85004, USA"
111,33.4735,-82.0105,2,30904,"Augusta, GA 30904, USA"
112,33.4936,-117.1484,1,92590,"Temecula, CA 92590, USA"
113,33.4942,-111.9261,8,85251,"Scottsdale, AZ 85251, USA"
114,33.4957,-88.4273,1,39701,"Columbus AFB, MS 39701, USA"
115,33.5186,-86.8104,6,35203,"Birmingham, AL 35203, USA"
116,33.5801,-85.0766,1,30117,"Carrollton, GA 30117, USA"
117,33.5806,-112.2374,2,85345,"Peoria, AZ 85345, USA"
118,33.5929,-79.0086,3,29576,"Murrells Inlet, SC 29576, USA"
119,33.6042,-111.7257,1,85268,"Scottsdale, AZ 85268, USA"
120,33.6102,-117.7251,1,92637,"Laguna Hills, CA 92637, USA"
121,33.6189,-117.9289,1,92663,"Newport Beach, CA 92663, USA"
122,33.6198,-86.6089,1,35173,"Trussville, AL 35173, USA"
123,33.6221,-84.3691,1,30297,"GILLEM ENCLAVE, GA 30297, USA"
124,33.6292,-112.3679,1,85374,"Sun City, AZ 85374, USA"
125,33.6412,-117.9188,1,92627,"Costa Mesa, CA 92627, USA"
126,33.6595,-117.9988,2,92648,"Huntington Beach, CA 92648, USA"
127,33.6796,-84.4394,2,30344,"East Point, GA 30344, USA"
128,33.6839,-117.7947,1,92604,"Irvine, CA 92604, USA"
129,33.6891,-78.8867,1,29577,"Myrtle Beach, SC 29577, USA"
130,33.7423,-84.1593,3,30058,"Lithonia, GA 30058, USA"
131,33.7455,-117.8676,4,92701,"Santa Ana, CA 92701, USA"
132,33.7475,-116.9720,13,92543,"Hemet, CA 92543, USA"
133,33.7490,-84.3880,53,30334,"Atlanta, GA 30334, USA"
134,33.7515,-84.7477,1,30134,"Douglasville, GA 30134, USA"
135,33.7904,-84.3060,2,30033,"Decatur, GA 30033, USA"
136,33.8168,-84.3133,2,30329,"Atlanta, GA 30329, USA"
137,33.8390,-83.9007,1,30052,"Loganville, GA 30052, USA"
138,33.8704,-117.9242,12,92832,"Fullerton, CA 92832, USA"
139,33.8711,-117.8628,1,92870,"Placentia, CA 92870, USA"
140,33.8753,-117.5664,2,92879,"Corona, CA 92879, USA"
141,33.8840,-84.5144,15,30080,"Smyrna, GA 30080, USA"
142,33.8901,-84.1430,1,30047,"Lilburn, GA 30047, USA"
143,33.8982,-84.2833,1,30340,"Atlanta, GA 30340, USA"
144,33.9192,-118.4165,1,90245,"El Segundo, CA 90245, USA"
145,33.9304,-84.3733,3,30328,"Atlanta, GA 30328, USA"
146,33.9500,-83.3833,1,30602,"Athens, GA 30602, USA"
147,33.9761,-117.9053,1,91748,"ROWLAND HGHTS, CA 91748, USA"
148,33.9806,-117.3755,1,92501,"Riverside, CA 92501, USA"
149,34.0195,-118.4912,1,90401,"Santa Monica, CA 90401, USA"
150,34.0522,-118.2437,40,90012,"Los Angeles, CA 90012, USA"
151,34.0736,-118.4004,1,90210,"Beverly Hills, CA 90210, USA"
152,34.1008,-117.7678,1,91750,"La Verne, CA 91750, USA"
153,34.1064,-117.5931,1,91730,"Rancho Cucamonga, CA 91730, USA"
154,34.1398,-118.3506,1,91602,"North Hollywood, CA 91602, USA"
155,34.1533,-118.7617,1,91301,"Calabasas, CA 91301, USA"
156,34.1975,-119.1770,1,93030,"Oxnard, CA 93030, USA"
157,34.2284,-92.0032,1,71601,"Pine Bluff, AR 71601, USA"
158,34.4165,-79.3712,1,29536,"Floydale, SC 29536, USA"
159,34.5026,-84.9510,1,30701,"Calhoun, GA 30701, USA"
160,34.7204,-80.7709,1,29720,"Lancaster, SC 29720, USA"
161,34.7371,-82.2543,4,29681,"Simpsonville, SC 29681, USA"
162,34.7465,-92.2896,1,72201,"Little Rock, AR 72201, USA"
163,34.8526,-82.3940,1,29601,"Greenville, SC 29601, USA"
164,34.8854,-82.4560,2,29617,"Greenville, SC 29617, USA"
165,34.9249,-81.0251,1,29730,"Rock Hill, SC 29730, USA"
166,35.0074,-80.9451,1,29715,"Fort Mill, SC 29715, USA"
167,35.0527,-78.8784,5,28301,"E FAYETTEVLLE, NC 28301, USA"
168,35.0844,-106.6504,22,87102,"Albuquerque, NM 87102, USA"
169,35.1495,-90.0490,8,38103,"Memphis, TN 38103, USA"
170,35.1983,-111.6513,2,86001,"Flagstaff, AZ 86001, USA"
171,35.2226,-97.4395,3,73069,"Norman, OK 73069, USA"
172,35.2271,-80.8431,30,28280,"Charlotte, NC 28280, USA"
173,35.2306,-89.7404,1,38002,"Arlington, TN 38002, USA"
174,35.4495,-97.3967,1,73110,"Oklahoma City, OK 73110, USA"
175,35.4799,-79.1803,1,27330,"Sanford, NC 27330, USA"
176,35.4993,-80.8487,1,28036,"Davidson, NC 28036, USA"
177,35.5067,-97.7626,1,73099,"Yukon, OK 73099, USA"
178,35.5187,-97.6323,1,73008,"Bethany, OK 73008, USA"
179,35.5466,-77.0522,1,27889,"Washington, NC 27889, USA"
180,35.6870,-105.9378,1,87501,"Pojoaque, NM 87501, USA"
181,35.7796,-78.6382,18,27601,"Raleigh, NC 27601, USA"
182,35.7810,-78.3697,1,27591,"Wendell, NC 27591, USA"
183,35.7884,-83.5543,1,37863,"Sevierville, TN 37863, USA"
184,35.8800,-106.3031,1,87544,"White Rock, NM 87544, USA"
185,35.9082,-75.6757,2,27954,"Manteo, NC 27954, USA"
186,35.9557,-80.0053,1,27260,"High Point, NC 27260, USA"
187,35.9606,-83.9207,3,37902,"Knoxville, TN 37902, USA"
188,36.0395,-114.9817,1,89015,"Henderson, NV 89015, USA"
189,36.0726,-79.7920,2,27401,"Greensboro, NC 27401, USA"
190,36.0822,-94.1719,1,72703,"Fayetteville, AR 72703, USA"
191,36.0957,-79.4378,2,27215,"Glen Raven, NC 27215, USA"
192,36.1540,-95.9928,1,74103,"Tulsa, OK 74103, USA"
193,36.1627,-86.7816,14,37243,"Nashville, TN 37243, USA"
194,36.2946,-76.2510,5,27909,"Elizabeth City, NC 27909, USA"
195,36.3302,-119.2921,1,93291,"Visalia, CA 93291, USA"
196,36.5963,-119.4504,1,93654,"Reedley, CA 93654, USA"
197,36.6060,-118.0629,1,93545,"Lone Pine, CA 93545, USA"
198,36.6212,-93.2155,2,65672,"Hollister, MO 65672, USA"
199,36.6676,-78.3875,13,23917,"Boydton, VA 23917, USA"
200,36.7378,-119.7871,5,93721,"Fresno, CA 93721, USA"
201,36.8508,-76.2859,2,23510,"Norfolk, VA 23510, USA"
202,36.8529,-75.9780,1,23451,"Virginia Beach, VA 23451, USA"
203,37.0209,-93.2060,1,65721,"Ozark, MO 65721, USA"
204,37.0299,-76.3452,1,23669,"Hampton, VA 23669, USA"
205,37.0373,-95.6164,10,67337,"Coffeyville, KS 67337, USA"
206,37.0431,-100.9210,1,67901,"Liberal, KS 67901, USA"
207,37.2090,-93.2923,1,65806,"Springfield, MO 65806, USA"
208,37.2279,-77.4019,1,23803,"S CHESTERFLD, VA 23803, USA"
209,37.2296,-80.4139,1,24060,"Blacksburg, VA 24060, USA"
210,37.3043,-77.2872,2,23860,"NORTH PRINCE GEORGE, VA 23860, USA"
211,37.3230,-122.0322,1,95014,"MONTE VISTA, CA 95014, USA"
212,37.3382,-121.8863,6,95112,"San Jose, CA 95112, USA"
213,37.3403,-95.2611,2,67357,"Parsons, KS 67357, USA"
214,37.3541,-121.9552,4,95050,"Santa Clara, CA 95050, USA"
215,37.3688,-122.0364,1,94087,"Sunnyvale, CA 94087, USA"
216,37.3823,-80.8226,1,24147,"Rich Creek, VA 24147, USA"
217,37.4323,-121.8996,2,95035,"Milpitas, CA 95035, USA"
218,37.5483,-121.9886,1,94538,"Fremont, CA 94538, USA"
219,37.5531,-83.3835,1,41339,"Wolverine, KY 41339, USA"
220,37.5718,-83.7069,1,41311,"Primrose, KY 41311, USA"
221,37.5901,-77.5564,2,23229,"Richmond, VA 23229, USA"
222,37.6547,-122.4077,1,94080,"South San Francisco, CA 94080, USA"
223,37.7249,-122.1561,1,94577,"San Leandro, CA 94577, USA"
224,37.7306,-88.9331,1,62959,"Marion, IL 62959, USA"
225,37.7719,-87.1112,1,42303,"Owensboro, KY 42303, USA"
226,37.7749,-122.4194,15,94103,"San Francisco, CA 94103, USA"
227,37.8018,-80.4456,1,24901,"Lewisburg, WV 24901, USA"
228,37.8044,-122.2711,1,94612,"Oakland, CA 94612, USA"
229,37.8216,-122.0000,1,94526,"Danville, CA 94526, USA"
230,37.8858,-122.1180,2,94549,"Lafayette, CA 94549, USA"
231,37.9358,-122.3477,1,94801,"Richmond, CA 94801, USA"
232,37.9480,-122.0608,1,94523,"Concord, CA 94523, USA"
233,37.9577,-121.2908,1,95202,"Stockton, CA 95202, USA"
234,37.9780,-122.0311,1,94520,"Concord, CA 94520, USA"
235,38.0293,-78.4767,1,22902,"Charlottesville, VA 22902, USA"
236,38.2527,-85.7585,7,40202,"Louisville, KY 40202, USA"
237,38.3456,-91.5015,1,65066,"Owensville, MO 65066, USA"
238,38.3686,-81.6999,1,25303,"South Charleston, WV 25303, USA"
239,38.5107,-90.3607,4,63128,"St. Louis, MO 63128, USA"
240,38.5816,-121.4944,3,95814,"Sacramento, CA 95814, USA"
241,38.6270,-90.1994,2,63103,"St. Louis, MO 63103, USA"
242,38.6412,-75.6110,2,19973,"Seaford, DE 19973, USA"
243,38.7134,-78.1591,1,22747,"Washington, VA 22747, USA"
244,38.7521,-121.2880,5,95678,"Roseville, CA 95678, USA"
245,38.7801,-77.3867,1,20124,"Clifton, VA 20124, USA"
246,38.8048,-77.0469,1,22314,"Alexandria, VA 22314, USA"
247,38.8120,-94.5319,1,64012,"VLG LOCH LOYD, MO 64012, USA"
248,38.8304,-77.1964,1,22003,"Annandale, VA 22003, USA"
249,38.8339,-104.8214,2,80903,"Colorado Springs, CO 80903, USA"
250,38.8404,-77.4289,2,20120,"Sully Station, VA 20120, USA"
251,38.8462,-77.3064,4,22030,"Fairfax, VA 22030, USA"
252,38.8800,-77.1068,18,22203,"Arlington, VA 22203, USA"
253,38.9072,-77.0369,98,20036,"Washington, DC 20036, USA"
254,38.9187,-77.2311,7,22182,"Vienna, VA 22182, USA"
255,38.9586,-77.3570,2,20190,"Herndon, VA 20190, USA"
256,38.9784,-76.4922,2,21401,"Annapolis, MD 21401, USA"
257,38.9822,-94.6708,2,66204,"Overland Park, KS 66204, USA"
258,38.9847,-77.0947,2,20814,"Bethesda, MD 20814, USA"
259,39.0032,-76.9719,1,20783,"Adelphi, MD 20783, USA"
260,39.0046,-76.8755,1,20770,"Greenbelt, MD 20770, USA"
261,39.0169,-94.2816,1,64015,"LAKE TAPWINGO, MO 64015, USA"
262,39.0438,-77.4874,64,20147,"Ashburn, VA 20147, USA"
263,39.0840,-77.1528,5,20850,"Rockville, MD 20850, USA"
264,39.0997,-94.5786,10,64106,"Kansas City, MO 64106, USA"
265,39.1031,-84.5120,2,45202,"Cincinnati, OH 45202, USA"
266,39.1073,-76.5711,1,21122,"Lake Shore, MD 21122, USA"
267,39.1404,-121.6169,1,95991,"Yuba City, CA 95991, USA"
268,39.1582,-75.5244,1,19901,"Dover, DE 19901, USA"
269,39.1626,-76.6247,1,21061,"Glen Burnie, MD 21061, USA"
270,39.1732,-77.2716,1,20874,"Germantown, MD 20874, USA"
271,39.1836,-96.5717,3,66502,"Manhattan, KS 66502, USA"
272,39.2037,-76.8610,1,21044,"Columbia, MD 21044, USA"
273,39.2507,-76.5205,22,21222,"Dundalk, MD 21222, USA"
274,39.2721,-76.7319,1,21228,"Baltimore, MD 21228, USA"
275,39.2904,-76.6122,2,21202,"Baltimore, MD 21202, USA"
276,39.3201,-76.5155,1,21237,"Baltimore, MD 21237, USA"
277,39.3229,-76.7280,3,21207,"Baltimore, MD 21207, USA"
278,39.3542,-85.9667,2,46124,"CAMP ATTRBRY, IN 46124, USA"
279,39.3643,-74.4229,1,08401,"Atlantic City, NJ 08401, USA"
280,39.3823,-74.6166,2,08234,"Egg Harbor Township, NJ 08234, USA"
281,39.4015,-76.6019,4,21286,"Baltimore, MD 21286, USA"
282,39.4021,-75.0393,1,08332,"Millville, NJ 08332, USA"
283,39.4737,-76.2413,1,21017,"Belcamp, MD 21017, USA"
284,39.4864,-75.0260,1,08360,"Vineland, NJ 08360, USA"
285,39.5481,-104.9739,5,80126,"Littleton, CO 80126, USA"
286,39.5483,-94.3299,1,64465,"Lathrop, MO 64465, USA"
287,39.6155,-74.1995,1,08008,"Beach Haven, NJ 08008, USA"
288,39.6172,-104.9508,4,80121,"Littleton, CO 80121, USA"
289,39.6293,-75.6583,1,19701,"Bear, DE 19701, USA"
290,39.7294,-104.8319,2,80011,"Aurora, CO 80011, USA"
291,39.7392,-104.9902,23,80202,"Denver, CO 80202, USA"
292,39.7684,-86.1581,9,46204,"Indianapolis, IN 46204, USA"
293,39.8028,-105.0875,1,80002,"Arvada, CO 80002, USA"
294,39.8367,-105.0372,3,80030,"Westminster, CO 80030, USA"
295,39.8468,-75.7116,1,19348,"Kennett Square, PA 19348, USA"
296,39.8496,-75.3557,1,19013,"UPPR CHICHSTR, PA 19013, USA"
297,39.8519,-74.9615,3,08043,"Kirkwood, NJ 08043, USA"
298,39.8680,-104.9719,1,80229,"Denver, CO 80229, USA"
299,39.9268,-75.0246,4,08002,"Cherry Hill, NJ 08002, USA"
300,39.9340,-74.8910,16,08054,"Mt Laurel Township, NJ 08054, USA"
301,39.9526,-75.1652,114,19107,"Philadelphia, PA 19107, USA"
302,39.9568,-86.0134,1,46038,"Fishers, IN 46038, USA"
303,39.9612,-82.9988,6,43215,"Columbus, OH 43215, USA"
304,39.9712,-74.3393,2,08759,"Lakehurst, NJ 08759, USA"
305,39.9784,-86.1180,3,46032,"Carmel, IN 46032, USA"
306,40.0206,-74.7922,1,08060,"EASTAMPTN TWP, NJ 08060, USA"
307,40.0416,-75.3699,1,19087,"Chesterbrook, PA 19087, USA"
308,40.0561,-74.8459,1,08016,"Burlington, NJ 08016, USA"
309,40.0736,-75.5355,1,19355,"Malvern, PA 19355, USA"
310,40.0821,-74.2097,2,08701,"Lakewood, NJ 08701, USA"
311,40.1484,-79.8878,1,15062,"Monessen, PA 15062, USA"
312,40.1646,-74.2083,1,07731,"Howell Township, NJ 07731, USA"
313,40.1784,-75.1285,4,19044,"Horsham, PA 19044, USA"
314,40.2010,-77.2003,1,17013,"CARLISLE BRKS, PA 17013, USA"
315,40.2137,-74.3001,4,07728,"Freehold, NJ 07728, USA"
316,40.2283,-74.9323,6,18940,"UPR MAKEFIELD, PA 18940, USA"
317,40.2654,-76.7083,5,17036,"Hummelstown, PA 17036, USA"
318,40.2732,-76.8867,1,17102,"Harrisburg, PA 17102, USA"
319,40.2778,-74.7294,1,08648,"Trenton, NJ 08648, USA"
320,40.2962,-74.0510,2,07724,"Tinton Falls, NJ 07724, USA"
321,40.2983,-74.6186,2,08550,"Princeton Junction, NJ 08550, USA"
322,40.3015,-79.5389,5,15601,"Greensburg, PA 15601, USA"
323,40.3043,-73.9924,4,07740,"Long Branch, NJ 07740, USA"
324,40.3043,-74.1004,1,07724,"Tinton Falls, NJ 07724, USA"
325,40.3101,-75.1299,1,18901,"New Britain, PA 18901, USA"
326,40.3118,-75.3252,1,18964,"Souderton, PA 18964, USA"
327,40.3273,-76.0110,1,19608,"South Heidelberg Township, PA 19608, USA"
328,40.3340,-76.7891,6,17112,"West Hanover Township, PA 17112, USA"
329,40.3376,-79.8092,1,15131,"McKeesport, PA 15131, USA"
330,40.3409,-76.4113,1,17046,"Lebanon, PA 17046, USA"
331,40.3573,-74.6672,3,08542,"Princeton, NJ 08542, USA"
332,40.3807,-74.5317,1,08852,"Monmouth Junction, NJ 08852, USA"
333,40.3968,-74.0916,1,07748,"Middletown, NJ 07748, USA"
334,40.4148,-74.2296,1,07747,"Aberdeen Township, NJ 07747, USA"
335,40.4259,-86.9081,5,47906,"West Lafayette, IN 47906, USA"
336,40.4329,-74.6635,1,08558,"Skillman, NJ 08558, USA"
337,40.4406,-79.9959,2,15219,"Pittsburgh, PA 15219, USA"
338,40.4862,-74.4518,2,08901,"New Brunswick, NJ 08901, USA"
339,40.5068,-74.2654,6,08861,"Perth Amboy, NJ 08861, USA"
340,40.5187,-74.4121,12,08817,"Edison, NJ 08817, USA"
341,40.5247,-111.8638,2,84020,"Draper, UT 84020, USA"
342,40.5549,-74.4643,2,08854,"Piscataway, NJ 08854, USA"
343,40.5576,-74.2846,3,07095,"Woodbridge, NJ 07095, USA"
344,40.5622,-111.9297,8,84095,"Riverton, UT 84095, USA"
345,40.5853,-105.0844,7,80521,"Fort Collins, CO 80521, USA"
346,40.5940,-74.6049,2,08807,"Bridgewater Township, NJ 08807, USA"
347,40.6023,-75.4714,1,18101,"Allentown, PA 18101, USA"
348,40.6082,-74.2776,1,07065,"Rahway, NJ 07065, USA"
349,40.6220,-74.2446,3,07036,"Linden, NJ 07036, USA"
350,40.6259,-75.3705,1,18018,"Bethlehem, PA 18018, USA"
351,40.6266,-80.0550,2,15090,"Wexford, PA 15090, USA"
352,40.6320,-73.7126,3,11598,"Woodmere, NY 11598, USA"
353,40.6343,-74.5005,1,07059,"Warren, NJ 07059, USA"
354,40.6387,-73.6401,4,11572,"Oceanside, NY 11572, USA"
355,40.6576,-73.5832,5,11520,"Freeport, NY 11520, USA"
356,40.6587,-73.6412,1,11570,"Rockville Centre, NY 11570, USA"
357,40.6590,-74.3474,1,07090,"Westfield, NJ 07090, USA"
358,40.6629,-73.5515,2,11566,"Merrick, NY 11566, USA"
359,40.6640,-74.2107,7,07201,"Elizabeth, NJ 07201, USA"
360,40.6643,-73.7085,3,11580,"Valley Stream, NY 11580, USA"
361,40.6687,-74.1143,1,07002,"Bayonne, NJ 07002, USA"
362,40.6805,-73.4553,1,11762,"Massapequa Park, NY 11762, USA"
363,40.6807,-73.4743,2,11758,"North Massapequa, NY 11758, USA"
364,40.6809,-74.4311,1,07922,"Berkeley Heights, NJ 07922, USA"
365,40.6815,-73.3998,1,11726,"Copiague, NY 11726, USA"
366,40.6837,-73.5101,3,11793,"Wantagh, NY 11793, USA"
367,40.6884,-75.2207,24,18042,"Williams Township, PA 18042, USA"
368,40.6916,-112.0011,2,84120,"Salt Lake City, UT 84120, USA"
369,40.6919,-74.7833,3,07830,"Tewksbury, NJ 07830, USA"
370,40.6957,-73.3257,1,11702,"Babylon, NY 11702, USA"
371,40.6976,-74.2632,4,07083,"Union, NJ 07083, USA"
372,40.7004,-73.5929,8,11553,"Uniondale, NY 11553, USA"
373,40.7009,-73.7129,7,11003,"Floral Park, NY 11003, USA"
374,40.7048,-73.6501,2,11552,"West Hempstead, NY 11552, USA"
375,40.7062,-73.6187,4,11550,"South Hempstead, NY 11550, USA"
376,40.7128,-74.0060,5640,10007,"New York, NY 10007, USA"
377,40.7146,-74.3646,3,07901,"Summit, NJ 07901, USA"
378,40.7178,-74.0431,87,07302,"Jersey City, NJ 07302, USA"
379,40.7182,-73.3543,8,11704,"West Babylon, NY 11704, USA"
380,40.7259,-73.5143,1,11756,"Levittown, NY 11756, USA"
381,40.7263,-74.2286,1,07111,"Irvington, NJ 07111, USA"
382,40.7268,-73.6343,2,11530,"Garden City South, NY 11530, USA"
383,40.7293,-73.4168,1,11735,"South Farmingdale, NY 11735, USA"
384,40.7304,-73.5981,2,11530,"Garden City South, NY 11530, USA"
385,40.7326,-73.4454,1,11735,"South Farmingdale, NY 11735, USA"
386,40.7357,-74.1724,114,07102,"Newark, NJ 07102, USA"
387,40.7432,-73.6932,3,11040,"GARDEN CITY P, NY 11040, USA"
388,40.7440,-74.0324,2,07030,"Hoboken, NJ 07030, USA"
389,40.7465,-74.1563,3,07029,"Harrison, NJ 07029, USA"
390,40.7537,-86.0689,1,46970,"Peru, IN 46970, USA"
391,40.7557,-73.5876,5,11590,"Westbury, NY 11590, USA"
392,40.7565,-73.6449,1,11596,"Williston Park, NY 11596, USA"
393,40.7570,-72.9393,2,11713,"Bellport, NY 11713, USA"
394,40.7608,-111.8910,12,84111,"Salt Lake City, UT 84111, USA"
395,40.7618,-73.3293,1,11729,"Deer Park, NY 11729, USA"
396,40.7664,-74.0254,2,07086,"Weehawken, NJ 07086, USA"
397,40.7673,-74.2049,3,07017,"East Orange, NJ 07017, USA"
398,40.7684,-73.5251,1,11801,"Hicksville, NY 11801, USA"
399,40.7684,-74.1454,1,07032,"Kearny, NJ 07032, USA"
400,40.7795,-74.0238,1,07087,"Union City, NJ 07087, USA"
401,40.7812,-73.2462,3,11717,"Brentwood, NY 11717, USA"
402,40.7863,-74.3301,3,07039,"Livingston, NJ 07039, USA"
403,40.7879,-74.0143,3,07093,"West New York, NJ 07093, USA"
404,40.7879,-74.3882,2,07932,"Florham Park, NJ 07932, USA"
405,40.7895,-74.0565,4,07094,"Secaucus, NJ 07094, USA"
406,40.7920,-73.5398,4,11753,"Jericho, NY 11753, USA"
407,40.7934,-73.4151,7,11747,"HUNTINGTN STA, NY 11747, USA"
408,40.7934,-77.8600,9,16801,"State College, PA 16801, USA"
409,40.7937,-74.1500,1,07109,"Belleville, NJ 07109, USA"
410,40.7968,-74.4815,1,07960,"Morristown, NJ 07960, USA"
411,40.7979,-73.6996,4,11030,"Plandome, NY 11030, USA"
412,40.7998,-73.6510,1,11576,"Roslyn, NY 11576, USA"
413,40.8007,-73.7285,1,11023,"Great Neck, NY 11023, USA"
414,40.8043,-73.1690,1,11749,"Hauppauge, NY 11749, USA"
415,40.8043,-74.0121,6,07047,"North Bergen, NJ 07047, USA"
416,40.8048,-73.3362,1,11746,"HUNTINGTN STA, NY 11746, USA"
417,40.8064,-73.1241,1,11779,"Ronkonkoma, NY 11779, USA"
418,40.8068,-74.1854,4,07003,"Bloomfield, NJ 07003, USA"
419,40.8123,-73.0784,1,11741,"Holbrook, NY 11741, USA"
420,40.8126,-73.9990,1,07022,"Fairview, NJ 07022, USA"
421,40.8176,-73.0001,4,11763,"Medford, NY 11763, USA"
422,40.8215,-73.9876,5,07010,"Cliffside Park, NJ 07010, USA"
423,40.8237,-73.3987,1,11746,"HUNTINGTN STA, NY 11746, USA"
424,40.8257,-73.2026,3,11788,"Hauppauge, NY 11788, USA"
425,40.8257,-73.4676,1,11797,"Woodbury, NY 11797, USA"
426,40.8257,-73.6982,1,11050,"Port Washington, NY 11050, USA"
427,40.8259,-74.2090,1,07042,"Montclair, NJ 07042, USA"
428,40.8306,-84.9291,1,46733,"Decatur, IN 46733, USA"
429,40.8340,-74.0971,1,07073,"East Rutherford, NJ 07073, USA"
430,40.8398,-74.2765,8,07006,"North Caldwell, NJ 07006, USA"
431,40.8429,-73.2929,7,11725,"Commack, NY 11725, USA"
432,40.8448,-73.8648,1,10462,"The Bronx, NY 10462, USA"
433,40.8478,-74.5747,1,07869,"Dover, NJ 07869, USA"
434,40.8482,-73.9976,2,07650,"Palisades Park, NJ 07650, USA"
435,40.8509,-73.9701,13,07024,"Fort Lee, NJ 07024, USA"
436,40.8532,-74.1138,1,07057,"Wallington, NJ 07057, USA"
437,40.8534,-73.4115,1,11746,"HUNTINGTN STA, NY 11746, USA"
438,40.8568,-74.1285,5,07055,"Passaic, NJ 07055, USA"
439,40.8570,-74.0215,1,07660,"Ridgefield Park, NJ 07660, USA"
440,40.8584,-73.0995,4,11720,"South Setauket, NY 11720, USA"
441,40.8584,-74.1638,4,07013,"Clifton, NJ 07013, USA"
442,40.8623,-73.6337,1,11542,"Glen Cove, NY 11542, USA"
443,40.8653,-74.4174,30,07054,"Parsippany, NJ 07054, USA"
444,40.8665,-73.0357,2,11784,"Selden, NY 11784, USA"
445,40.8687,-73.0015,3,11727,"Coram, NY 11727, USA"
446,40.8690,-74.2082,1,07424,"Woodland Park, NJ 07424, USA"
447,40.8737,-72.8079,1,11949,"Manorville, NY 11949, USA"
448,40.8779,-74.5938,1,07803,"Dover, NJ 07803, USA"
449,40.8815,-74.1132,1,07026,"Garfield, NJ 07026, USA"
450,40.8859,-74.0435,7,07601,"Hackensack, NJ 07601, USA"
451,40.8929,-73.9726,23,07631,"Englewood, NJ 07631, USA"
452,40.8932,-74.0117,13,07666,"Teaneck, NJ 07666, USA"
453,40.8992,-73.3678,1,11721,"Centerport, NY 11721, USA"
454,40.9040,-74.1007,1,07663,"Saddle Brook, NJ 07663, USA"
455,40.9040,-74.1185,2,07407,"Elmwood Park, NJ 07407, USA"
456,40.9098,-73.8079,1,10803,"Pelham, NY 10803, USA"
457,40.9107,-73.5621,1,11709,"Bayville, NY 11709, USA"
458,40.9115,-73.7824,80,10801,"New Rochelle, NY 10801, USA"
459,40.9126,-73.8371,95,10550,"Mt Vernon, NY 10550, USA"
460,40.9148,-74.3838,2,07045,"Montville, NJ 07045, USA"
461,40.9168,-74.1718,6,07505,"Paterson, NJ 07505, USA"
462,40.9254,-73.9629,3,07670,"Tenafly, NJ 07670, USA"
463,40.9254,-74.2765,43,07470,"Wayne, NJ 07470, USA"
464,40.9257,-73.1409,1,11790,"Stony Brook, NY 11790, USA"
465,40.9276,-73.9974,2,07621,"Bergenfield, NJ 07621, USA"
466,40.9279,-73.7518,8,10538,"Larchmont, NY 10538, USA"
467,40.9294,-73.1025,1,11733,"Setauket- East Setauket, NY 11733, USA"
468,40.9312,-73.8987,1438,10701,"Yonkers, NY 10701, USA"
469,40.9329,-74.6593,1,07843,"Hopatcong, NJ 07843, USA"
470,40.9382,-73.8321,4,10708,"Bronxville, NY 10708, USA"
471,40.9404,-74.1318,7,07410,"Fair Lawn, NJ 07410, USA"
472,40.9445,-74.0754,6,07652,"Paramus, NJ 07652, USA"
473,40.9470,-73.0295,2,11766,"Mt Sinai, NY 11766, USA"
474,40.9487,-73.7326,7,10543,"Mamaroneck, NY 10543, USA"
475,40.9493,-74.1538,1,07506,"Hawthorne, NJ 07506, USA"
476,40.9504,-73.8274,1,10707,"Tuckahoe, NY 10707, USA"
477,40.9596,-73.8096,2,10709,"Eastchester, NY 10709, USA"
478,40.9700,-73.7176,13,10528,"Harrison, NY 10528, USA"
479,40.9732,-73.9615,2,07624,"Closter, NJ 07624, USA"
480,40.9793,-74.1165,1,07450,"Ridgewood, NJ 07450, USA"
481,40.9807,-73.6837,10,10580,"Rye, NY 10580, USA"
482,40.9868,-75.1946,1,18360,"Stroudsburg, PA 18360, USA"
483,40.9901,-75.2163,2,18360,"Stroudsburg, PA 18360, USA"
484,40.9912,-74.0326,1,07675,"Westwood, NJ 07675, USA"
485,40.9945,-73.8787,11,10706,"HASTINGS HDSN, NY 10706, USA"
486,41.0018,-73.6657,7,10573,"Port Chester, NY 10573, USA"
487,41.0051,-73.7846,19,10583,"Scarsdale, NY 10583, USA"
488,41.0065,-73.9490,2,07647,"Rockleigh, NJ 07647, USA"
489,41.0095,-74.1729,1,07481,"Wyckoff, NJ 07481, USA"
490,41.0107,-73.8437,2,10502,"Ardsley, NY 10502, USA"
491,41.0113,-73.9133,1,10964,"Palisades, NY 10964, USA"
492,41.0132,-74.2643,2,07436,"Oakland, NJ 07436, USA"
493,41.0145,-73.8726,36,10522,"Dobbs Ferry, NY 10522, USA"
494,41.0190,-73.7982,5,10530,"Scarsdale, NY 10530, USA"
495,41.0262,-73.6282,17,06830,"Greenwich, CT 06830, USA"
496,41.0335,-74.6364,5,07871,"Sparta Township, NJ 07871, USA"
497,41.0340,-73.7629,148,10601,"White Plains, NY 10601, USA"
498,41.0391,-73.8670,10,10533,"Irvington, NY 10533, USA"
499,41.0434,-73.7974,3,10607,"White Plains, NY 10607, USA"
500,41.0465,-73.9496,2,10962,"Orangeburg, NY 10962, USA"
501,41.0468,-74.0229,7,07645,"Montvale, NJ 07645, USA"
502,41.0534,-73.5387,32,06901,"Stamford, CT 06901, USA"
503,41.0551,-73.8201,10,10523,"Elmsford, NY 10523, USA"
504,41.0573,-74.1410,3,07446,"Ramsey, NJ 07446, USA"
505,41.0584,-74.0985,1,07458,"U SADDLE RIV, NJ 07458, USA"
506,41.0590,-74.0218,1,10965,"Pearl River, NY 10965, USA"
507,41.0648,-72.4262,1,11971,"Southold, NY 11971, USA"
508,41.0748,-73.7751,4,10595,"Valhalla, NY 10595, USA"
509,41.0762,-73.8587,24,10591,"Sleepy Hollow, NY 10591, USA"
510,41.0772,-73.4687,1,06820,"Darien, CT 06820, USA"
511,41.0857,-73.8585,9,10591,"Sleepy Hollow, NY 10591, USA"
512,41.0886,-74.1436,1,07430,"Mahwah, NJ 07430, USA"
513,41.0887,-74.0135,5,10954,"Bardonia, NY 10954, USA"
514,41.0907,-73.9179,6,10960,"GRND VW HUDSN, NY 10960, USA"
515,41.0965,-73.9729,6,10994,"West Nyack, NY 10994, USA"
516,41.1009,-74.1163,1,10901,"Montebello, NY 10901, USA"
517,41.1073,-73.7960,16,10532,"Hawthorne, NY 10532, USA"
518,41.1132,-74.0437,8,10977,"New Square, NY 10977, USA"
519,41.1134,-74.2454,2,07456,"Ringwood, NJ 07456, USA"
520,41.1148,-74.1496,1,10901,"Montebello, NY 10901, USA"
521,41.1177,-73.4082,5,06851,"Norwalk, CT 06851, USA"
522,41.1220,-75.3646,3,18344,"Mt Pocono, PA 18344, USA"
523,41.1265,-73.7140,4,10504,"Armonk, NY 10504, USA"
524,41.1333,-73.7924,14,10570,"Pleasantville, NY 10570, USA"
525,41.1400,-104.8202,3,82001,"Francis E. Warren AFB, WY 82001, USA"
526,41.1402,-73.8402,5,10510,"Briarcliff Manor, NY 10510, USA"
527,41.1408,-73.2613,9,06824,"Fairfield, CT 06824, USA"
528,41.1476,-73.9893,4,10956,"New City, NY 10956, USA"
529,41.1507,-73.9454,3,10920,"Congers, NY 10920, USA"
530,41.1595,-73.7649,4,10514,"Chappaqua, NY 10514, USA"
531,41.1629,-73.8615,13,10562,"Ossining, NY 10562, USA"
532,41.1792,-73.1894,6,06604,"Bridgeport, CT 06604, USA"
533,41.1845,-73.1332,1,06615,"Stratford, CT 06615, USA"
534,41.1913,-73.7984,1,10546,"Millwood, NY 10546, USA"
535,41.1976,-73.9646,1,10927,"Haverstraw, NY 10927, USA"
536,41.2043,-73.6437,1,10506,"Bedford, NY 10506, USA"
537,41.2043,-73.7271,11,10549,"Bedford Corners, NY 10549, USA"
538,41.2084,-73.8913,5,10520,"Croton-On-Hudson, NY 10520, USA"
539,41.2295,-73.9871,4,10980,"Stony Point, NY 10980, USA"
540,41.2307,-73.0640,2,06460,"Milford, CT 06460, USA"
541,41.2334,-80.4487,3,16148,"Hermitage, PA 16148, USA"
542,41.2429,-73.2007,5,06611,"Trumbull, CT 06611, USA"
543,41.2565,-95.9345,11,68102,"Omaha, NE 68102, USA"
544,41.2587,-73.6854,3,10536,"Katonah, NY 10536, USA"
545,41.2619,-95.8608,1,51503,"Council Bluffs, IA 51503, USA"
546,41.2623,-73.6145,2,10518,"Cross River, NY 10518, USA"
547,41.2709,-73.7776,3,10598,"Yorktown Heights, NY 10598, USA"
548,41.2729,-73.5524,1,10590,"South Salem, NY 10590, USA"
549,41.2799,-72.8141,2,06405,"Branford, CT 06405, USA"
550,41.2901,-73.9204,15,10566,"Peekskill, NY 10566, USA"
551,41.2923,-73.7658,1,10501,"Amawalk, NY 10501, USA"
552,41.2950,-73.6745,1,10526,"Goldens Bridge, NY 10526, USA"
553,41.3083,-72.9279,25,06511,"New Haven, CT 06511, USA"
554,41.3139,-73.8007,4,10598,"Yorktown Heights, NY 10598, USA"
555,41.3165,-73.0932,1,06484,"Shelton, CT 06484, USA"
556,41.3179,-73.8462,15,10547,"Mohegan Lake, NY 10547, USA"
557,41.3276,-72.7673,1,06471,"North Branford, CT 06471, USA"
558,41.3307,-74.1868,3,10950,"Kiryas Joel, NY 10950, USA"
559,41.3318,-74.3568,1,10921,"Florida, NY 10921, USA"
560,41.3452,-73.6560,1,10560,"North Salem, NY 10560, USA"
561,41.3626,-74.2713,1,10918,"Chester, NY 10918, USA"
562,41.3645,-74.1060,1,10930,"Highland Mills, NY 10930, USA"
563,41.3676,-73.5779,1,10509,"Brewster, NY 10509, USA"
564,41.3693,-73.9663,5,10928,"Highland Falls, NY 10928, USA"
565,41.3723,-73.7335,5,10541,"LAKE LINCOLND, NY 10541, USA"
566,41.3898,-81.4412,1,44139,"Cleveland, OH 44139, USA"
567,41.3915,-73.9560,1,10996,"West Point, NY 10996, USA"
568,41.3948,-73.4540,9,06810,"Danbury, CT 06810, USA"
569,41.3973,-73.6171,1,10509,"Brewster, NY 10509, USA"
570,41.4020,-74.3243,1,10924,"Goshen, NY 10924, USA"
571,41.4090,-75.6624,1,18503,"Scranton, PA 18503, USA"
572,41.4170,-81.6060,1,44125,"Valley View, OH 44125, USA"
573,41.4198,-75.6324,2,18512,"Throop, PA 18512, USA"
574,41.4301,-73.6801,2,10512,"Kent Cliffs, NY 10512, USA"
575,41.4343,-74.0354,1,12518,"Cornwall, NY 12518, USA"
576,41.4373,-74.1181,5,12577,"Salisbury Mills, NY 12577, USA"
577,41.4459,-74.4229,5,10940,"Scotchtown, NY 10940, USA"
578,41.4476,-71.5247,1,02879,"Wakefield, RI 02879, USA"
579,41.4543,-70.5620,1,02568,"Vineyard Haven, MA 02568, USA"
580,41.4570,-72.8231,1,06492,"Yalesville, CT 06492, USA"
581,41.4615,-73.6710,10,10512,"Kent Cliffs, NY 10512, USA"
582,41.4768,-74.0238,1,12553,"New Windsor, NY 12553, USA"
583,41.4993,-81.6944,1,44113,"Cleveland, OH 44113, USA"
584,41.5034,-74.0104,4,12550,"Newburgh, NY 12550, USA"
585,41.5276,-74.2368,1,12549,"Montgomery, NY 12549, USA"
586,41.5356,-73.8990,22,12524,"Fishkill, NY 12524, USA"
587,41.5445,-73.2090,1,06798,"Woodbury, CT 06798, USA"
588,41.5520,-81.4393,1,44143,"MAYFIELD VILLAGE, OH 44143, USA"
589,41.5582,-73.0515,5,06702,"Waterbury, CT 06702, USA"
590,41.5612,-74.1885,4,12586,"Walden, NY 12586, USA"
591,41.5620,-73.6026,1,12564,"Pawling, NY 12564, USA"
592,41.5772,-93.7113,1,50265,"WDM, IA 50265, USA"
593,41.5840,-73.8087,7,12533,"HOPEWELL, NY 12533, USA"
594,41.5868,-93.6250,4,50309,"Des Moines, IA 50309, USA"
595,41.6062,-73.8729,2,12590,"WAPPINGERS FL, NY 12590, USA"
596,41.6496,-73.7634,6,12540,"Lagrangeville, NY 12540, USA"
597,41.6528,-83.5379,2,43604,"Toledo, OH 43604, USA"
598,41.6611,-91.5302,2,52240,"Iowa City, IA 52240, USA"
599,41.6612,-72.7795,1,06051,"New Britain, CT 06051, USA"
600,41.6718,-72.9493,2,06010,"Bristol, CT 06010, USA"
601,41.6757,-72.8634,4,06062,"Plainville, CT 06062, USA"
602,41.6862,-72.5451,1,06033,"Glastonbury, CT 06033, USA"
603,41.7001,-71.4162,1,02889,"Warwick, RI 02889, USA"
604,41.7004,-73.9210,10,12601,"Poughkeepsie, NY 12601, USA"
605,41.7064,-72.6596,1,06109,"Wethersfield, CT 06109, USA"
606,41.7170,-74.3957,1,12428,"Ellenville, NY 12428, USA"
607,41.7209,-73.9601,3,12528,"Highland, NY 12528, USA"
608,41.7237,-73.9199,1,12601,"Poughkeepsie, NY 12601, USA"
609,41.7370,-111.8338,2,84321,"Logan, UT 84321, USA"
610,41.7634,-72.6128,1,06118,"Hartford, CT 06118, USA"
611,41.7658,-72.6734,3,06103,"Hartford, CT 06103, USA"
612,41.7660,-87.8795,1,60525,"IND HEAD PARK, IL 60525, USA"
613,41.7851,-73.6940,1,12545,"Millbrook, NY 12545, USA"
614,41.7959,-87.9756,1,60559,"Westmont, IL 60559, USA"
615,41.8012,-74.7465,4,12754,"Liberty, NY 12754, USA"
616,41.8187,-72.4790,1,06066,"VERNON ROCKVL, CT 06066, USA"
617,41.8240,-71.4128,10,02903,"Providence, RI 02903, USA"
618,41.8490,-72.5718,1,06074,"South Windsor, CT 06074, USA"
619,41.8498,-73.9301,1,12580,"Staatsburg, NY 12580, USA"
620,41.8506,-87.7937,1,60402,"Stickney, IL 60402, USA"
621,41.8672,-73.7138,1,12581,"Stanfordville, NY 12581, USA"
622,41.8781,-87.6298,91,60604,"Chicago, IL 60604, USA"
623,41.8995,-87.9403,2,60126,"Elmhurst, IL 60126, USA"
624,41.9243,-72.6454,1,06096,"Windsor Locks, CT 06096, USA"
625,41.9270,-73.9974,2,12401,"Kingston, NY 12401, USA"
626,41.9318,-73.9074,1,12572,"Rhinebeck, NY 12572, USA"
627,41.9445,-71.2856,4,02703,"South Attleboro, MA 02703, USA"
628,41.9790,-76.5155,2,18840,"South Waverly, PA 18840, USA"
629,42.0217,-76.3669,2,13812,"Nichols, NY 13812, USA"
630,42.0709,-83.2466,3,48173,"Gibraltar, MI 48173, USA"
631,42.0776,-73.9529,2,12477,"Saugerties, NY 12477, USA"
632,42.0984,-76.0494,1,13760,"Endicott, NY 13760, USA"
633,42.1275,-87.8290,2,60062,"Northbrook, IL 60062, USA"
634,42.1292,-80.0851,1,16507,"Erie, PA 16507, USA"
635,42.1334,-75.8963,1,13901,"Binghamton, NY 13901, USA"
636,42.1399,-71.5163,1,01757,"Milford, MA 01757, USA"
637,42.1620,-71.0426,1,02368,"Randolph, MA 02368, USA"
638,42.1900,-87.9084,1,60069,"Prairie View, IL 60069, USA"
639,42.1921,-71.7615,2,01527,"Millbury, MA 01527, USA"
640,42.2070,-71.6856,1,01519,"Grafton, MA 01519, USA"
641,42.2170,-88.0495,3,60047,"Long Grove, IL 60047, USA"
642,42.2173,-73.8646,2,12414,"Catskill, NY 12414, USA"
643,42.2411,-83.6130,1,48197,"Ypsilanti, MI 48197, USA"
644,42.2529,-71.0023,5,02169,"Quincy, MA 02169, USA"
645,42.2529,-73.7910,1,12534,"Hudson, NY 12534, USA"
646,42.2586,-87.8406,1,60045,"Lake Forest, IL 60045, USA"
647,42.2775,-71.3468,1,01760,"Natick, MA 01760, USA"
648,42.2808,-83.7430,6,48104,"Ann Arbor, MI 48104, USA"
649,42.2959,-71.7128,1,01545,"Shrewsbury, MA 01545, USA"
650,42.2968,-71.2924,1,02482,"Wellesley, MA 02482, USA"
651,42.3212,-85.1797,1,49017,"Battle Creek, MI 49017, USA"
652,42.3265,-122.8756,1,97501,"Medford, OR 97501, USA"
653,42.3278,-77.6611,3,14843,"Hornell, NY 14843, USA"
654,42.3314,-83.0458,19,48226,"Detroit, MI 48226, USA"
655,42.3370,-71.2092,1,02459,"Newton, MA 02459, USA"
656,42.3384,-83.8886,1,48130,"Dexter, MI 48130, USA"
657,42.3509,-73.8029,3,12051,"Coxsackie, NY 12051, USA"
658,42.3601,-71.0589,87,02203,"Boston, MA 02203, USA"
659,42.3732,-72.5199,1,01002,"Pelham, MA 01002, USA"
660,42.3736,-71.1097,2,02138,"Cambridge, MA 02138, USA"
661,42.3973,-72.9357,3,01098,"Worthington, MA 01098, USA"
662,42.4440,-76.5019,1,14850,"Ithaca, NY 14850, USA"
663,42.4529,-75.0638,1,13820,"Oneonta, NY 13820, USA"
664,42.4906,-71.2760,2,01730,"Bedford, MA 01730, USA"
665,42.5047,-71.1956,1,01803,"Burlington, MA 01803, USA"
666,42.5332,-73.7463,2,12033,"CASTLETON, NY 12033, USA"
667,42.5467,-83.2113,1,48009,"Birmingham, MI 48009, USA"
668,42.5750,-70.9321,1,01923,"Danvers, MA 01923, USA"
669,42.5869,-82.9196,1,48036,"Clinton Twp, MI 48036, USA"
670,42.5909,-73.7018,1,12061,"East Greenbush, NY 12061, USA"
671,42.6334,-71.3162,1,01851,"Lowell, MA 01851, USA"
672,42.6526,-73.7562,33,12210,"Albany, NY 12210, USA"
673,42.6967,-73.6443,1,12198,"Wynantskill, NY 12198, USA"
674,42.7010,-82.9589,2,48042,"Macomb, MI 48042, USA"
675,42.7120,-73.2037,1,01267,"Williamstown, MA 01267, USA"
676,42.7179,-73.8335,8,12205,"Albany, NY 12205, USA"
677,42.7284,-73.6918,1,12180,"Troy, NY 12180, USA"
678,42.7325,-84.5555,2,48933,"Lansing, MI 48933, USA"
679,42.7370,-84.4839,3,48823,"East Lansing, MI 48823, USA"
680,42.7478,-73.7605,4,12110,"Newtonville, NY 12110, USA"
681,42.7512,-72.0098,5,03461,"Rindge, NH 03461, USA"
682,42.7654,-71.4676,2,03064,"Nashua, NH 03064, USA"
683,42.8126,-70.8773,1,01950,"Newburyport, MA 01950, USA"
684,42.8142,-73.9396,1,12305,"Schenectady, NY 12305, USA"
685,42.8270,-75.5446,1,13346,"Hamilton, NY 13346, USA"
686,42.8359,-78.7539,1,14224,"West Seneca, NY 14224, USA"
687,42.8864,-78.8784,17,14202,"Buffalo, NY 14202, USA"
688,42.9006,-78.6703,3,14086,"Lancaster, NY 14086, USA"
689,42.9026,-78.7446,3,14227,"S CHEEK, NY 14227, USA"
690,42.9151,-73.8051,2,12019,"Charlton, NY 12019, USA"
691,42.9337,-72.2781,1,03431,"Surry, NH 03431, USA"
692,42.9376,-70.8389,2,03842,"Hampton Beach, NH 03842, USA"
693,42.9403,-78.6869,1,14026,"Bowmansville, NY 14026, USA"
694,42.9764,-88.1084,2,53151,"New Berlin, WI 53151, USA"
695,42.9956,-71.4548,10,03104,"Manchester, NH 03104, USA"
696,43.0233,-78.7681,8,14068,"Getzville, NY 14068, USA"
697,43.0256,-74.9860,1,13350,"Herkimer, NY 13350, USA"
698,43.0345,-76.4480,1,13060,"Elbridge, NY 13060, USA"
699,43.0389,-87.9065,10,53202,"Milwaukee, WI 53202, USA"
700,43.0481,-76.1474,14,13202,"Syracuse, NY 13202, USA"
701,43.0731,-89.4012,12,53715,"Madison, WI 53715, USA"
702,43.0831,-73.7846,3,12866,"Saratoga Springs, NY 12866, USA"
703,43.0987,-77.4419,1,14450,"Fairport, NY 14450, USA"
704,43.1009,-75.2327,2,13502,"Utica, NY 13502, USA"
705,43.1223,-77.5734,1,14618,"LOEHMANNS PLZ, NY 14618, USA"
706,43.1353,-87.9356,1,53209,"River Hills, WI 53209, USA"
707,43.1566,-77.6088,9,14604,"Rochester, NY 14604, USA"
708,43.1789,-88.1173,1,53051,"Menomonee Falls, WI 53051, USA"
709,43.1947,-88.7290,1,53094,"Watertown, WI 53094, USA"
710,43.2081,-71.5376,2,03301,"Concord, NH 03301, USA"
711,43.2128,-75.4557,2,13440,"Rome, NY 13440, USA"
712,43.2134,-77.5797,1,14617,"Rochester, NY 14617, USA"
713,43.2201,-78.3870,1,14103,"Medina, NY 14103, USA"
714,43.3228,-76.4172,1,13069,"Fulton, NY 13069, USA"
715,43.3536,-73.6772,2,12804,"Glens Falls, NY 12804, USA"
716,43.5325,-90.0026,1,53959,"Reedsburg, WI 53959, USA"
717,43.5446,-96.7311,3,57104,"Sioux Falls, SD 57104, USA"
718,43.6150,-116.2023,2,83702,"Boise, ID 83702, USA"
719,43.7435,-70.2602,1,04105,"Falmouth, ME 04105, USA"
720,43.7814,-89.5726,1,53952,"Brooks, WI 53952, USA"
721,43.8006,-70.1867,1,04096,"Yarmouth, ME 04096, USA"
722,44.0521,-123.0868,1,97401,"Eugene, OR 97401, USA"
723,44.1004,-70.2148,3,04240,"Lewiston, ME 04240, USA"
724,44.4489,-88.0604,1,54115,"Ashwaubenon, WI 54115, USA"
725,44.6942,-75.4863,1,13669,"Ogdensburg, NY 13669, USA"
726,44.8833,-93.2830,1,55423,"Minneapolis, MN 55423, USA"
727,44.9239,-92.9594,1,55125,"St Paul, MN 55125, USA"
728,44.9429,-123.0351,1,97301,"Salem, OR 97301, USA"
729,44.9537,-93.0900,16,55101,"St Paul, MN 55101, USA"
730,44.9778,-93.2650,10,55415,"Minneapolis, MN 55415, USA"
731,45.0861,-93.2633,1,55432,"Spring Lake Park, MN 55432, USA"
732,45.1732,-93.3030,1,55433,"Minneapolis, MN 55433, USA"
733,45.2789,-92.9852,1,55025,"Columbus, MN 55025, USA"
734,45.4187,-122.7873,4,97223,"Tigard, OR 97223, USA"
735,45.5122,-122.6587,6,97214,"Portland, OR 97214, USA"
736,45.8399,-119.7006,8,97818,"Boardman, OR 97818, USA"
737,46.3572,-98.2945,1,58458,"Grand Rapids, ND 58458, USA"
738,46.4547,-90.1710,2,49938,"Ironwood, MI 49938, USA"
739,46.8738,-96.7678,28,56560,"Moorhead, MN 56560, USA"
740,46.8772,-96.7898,8,58102,"North River, ND 58102, USA"
741,46.9005,-97.2112,1,58012,"Casselton, ND 58012, USA"
742,46.9105,-98.7084,1,58401,"Jamestown, ND 58401, USA"
743,47.2343,-119.8525,5,98848,"George, WA 98848, USA"
744,47.6062,-122.3321,10,98164,"Seattle, WA 98164, USA"
745,48.2330,-101.2923,10,58701,"Minot, ND 58701, USA"
746,48.3883,-115.5560,2,59923,"Libby, MT 59923, USA"
